stop_id,stop_name,stop_lat,stop_lon
dover,Dover,51.13,1.31
calais,Calais,50.97,1.86
dunkirk,Dunkirk,51.04,2.37
newcastle,Newcastle,55.01,-1.45
ijmuiden,IJmuiden,52.46,4.61
copenhagen,Copenhagen,55.69,12.6
oslo,Oslo,59.91,10.73
frederikshavn,Frederikshavn,57.44,10.54
newhaven,Newhaven,50.79,0.05
dieppe,Dieppe,49.92,1.08
